,City,Country,Lat,Lng,Date,Max Temp,Humidity,Clouds,Wind Speed
0,Punta Arenas,CL,-53.15,-70.92,1601716955,41.0,65,75,19.46
1,Bonthe,SL,7.53,-12.51,1601716956,78.48,86,99,3.06
2,Kapaa,US,22.08,-159.32,1601716957,80.6,83,75,4.7
3,Nanortalik,GL,60.14,-45.24,1601716958,37.04,91,97,12.97
4,Naze,JP,28.37,129.48,1601716959,80.6,69,20,11.41
5,Half Moon Bay,US,37.46,-122.43,1601716959,64.0,77,90,4.9
6,Entre Rios,BR,-11.94,-38.08,1601716960,68.05,93,16,1.45
7,George,ZA,-33.96,22.46,1601716960,60.8,93,75,18.34
8,Mossamedes,AO,-15.2,12.15,1601716961,66.2,82,75,13.87
9,Darhan,MN,49.49,105.92,1601716962,40.33,57,2,6.8
10,Ushuaia,AR,-54.8,-68.3,1601716962,37.4,69,90,4.7
11,Rikitea,PF,-23.12,-134.97,1601716963,72.72,79,36,15.59
12,Forio,IT,40.73,13.86,1601716963,81.0,73,40,23.04
13,Hermanus,ZA,-34.42,19.23,1601716964,60.01,92,99,5.01
14,George Town,MY,5.41,100.34,1601716965,86.0,70,20,5.82
15,Seydi,TM,39.48,62.91,1601716965,75.87,17,0,5.19
16,Cape Town,ZA,-33.93,18.42,1601716853,69.8,49,20,8.05
17,Lata,PT,40.16,-8.33,1601716966,55.99,82,4,1.01
18,Brawley,US,32.98,-115.53,1601716967,73.4,27,1,4.7
19,Pacific Grove,US,36.62,-121.92,1601716967,55.4,100,90,4.7
20,Kailua,US,21.4,-157.74,1601716968,78.8,83,75,4.7
21,Mehamn,NO,71.04,27.85,1601716969,49.46,78,42,16.64
22,Avarua,CK,-21.21,-159.78,1601716970,73.4,83,97,3.36
23,Atuona,PF,-9.8,-139.03,1601716970,78.64,76,4,22.7
24,Talnakh,RU,69.49,88.4,1601716971,32.0,95,40,24.61
25,Atasū,KZ,48.68,71.64,1601716972,58.15,36,4,6.76
26,Cidreira,BR,-30.18,-50.21,1601716972,59.85,80,100,15.43
27,Dhībān,SY,35.04,40.52,1601716973,91.11,19,0,10.63
28,Kirakira,SB,-10.45,161.92,1601716973,78.39,81,28,9.57
29,Plouzané,FR,48.38,-4.62,1601716974,55.4,82,90,27.51
30,Diffa,NE,13.32,12.61,1601716974,88.97,49,73,13.67
31,Port Alfred,ZA,-33.59,26.89,1601716975,62.58,79,99,24.4
32,Severo-Kuril'sk,RU,50.68,156.12,1601716976,46.24,77,0,11.16
33,Champerico,GT,14.3,-91.92,1601716976,66.0,96,100,10.29
34,Yarmouth,US,41.71,-70.23,1601716977,50.0,93,1,6.82
35,Pampa,US,35.54,-100.96,1601716977,53.6,71,1,5.82
36,Goulburn,AU,-34.75,149.72,1601716978,59.0,56,5,8.16
37,Cherskiy,RU,68.75,161.3,1601716979,30.96,90,100,5.17
38,Hobart,AU,-42.88,147.33,1601716741,57.2,82,75,6.93
39,Esperance,AU,-33.87,121.9,1601716980,51.8,93,90,12.75
40,Presidente Médici,BR,-11.18,-61.9,1601716880,73.89,86,87,2.04
41,Port Elizabeth,ZA,-33.92,25.57,1601716981,59.0,87,75,12.75
42,Saskylakh,RU,71.92,114.08,1601716982,26.69,97,82,12.33
43,Dikson,RU,73.51,80.55,1601716982,34.9,86,100,22.73
44,Te Anau,NZ,-45.42,167.72,1601716983,49.78,88,78,9.08
45,Saldanha,ZA,-33.01,17.94,1601716984,64.4,63,0,4.7
46,Puerto Ayora,EC,-0.74,-90.35,1601716985,64.99,96,48,7.0
47,Alice Springs,AU,-23.7,133.88,1601716967,93.2,13,1,11.41
48,Los Llanos de Aridane,ES,28.66,-17.92,1601716845,73.4,73,75,11.41
49,Albany,US,42.6,-73.97,1601716987,46.0,85,67,3.09
50,Yellowknife,CA,62.46,-114.35,1601716988,42.8,100,90,10.29
51,Lakatoro,VU,-16.1,167.42,1601716988,77.0,88,75,9.17
52,Mataura,NZ,-46.19,168.86,1601716989,55.0,92,100,8.99
53,Lac du Bonnet,CA,50.25,-96.06,1601716990,30.99,99,30,3.02
54,Bluff,NZ,-46.6,168.33,1601716990,55.0,92,100,8.99
55,Soure,BR,-0.72,-48.52,1601716991,78.67,87,78,9.01
56,Ilulissat,GL,69.22,-51.1,1601716992,33.8,74,99,11.41
57,Kurtamysh,RU,54.91,64.43,1601716993,59.45,64,100,13.0
58,Ihosy,MG,-22.4,46.12,1601716994,84.24,37,72,6.17
59,Vaini,TO,-21.2,-175.2,1601716995,71.6,100,90,10.29
60,Azul,AR,-36.78,-59.86,1601716798,30.54,98,0,6.46
61,Longyearbyen,SJ,78.22,15.64,1601716928,32.0,91,20,2.24
62,Castro,BR,-24.79,-50.01,1601716876,62.19,70,3,7.76
63,Khovd,MN,48.01,91.64,1601716997,42.19,57,0,4.83
64,Caravelas,BR,-17.71,-39.25,1601716997,70.32,90,77,5.21
65,San Vicente,AR,-26.62,-54.13,1601716998,65.79,89,43,5.46
66,Dingle,PH,11.0,122.67,1601716998,79.74,89,100,1.28
67,Norman Wells,CA,65.28,-126.83,1601716999,44.6,75,75,3.36
68,Hilo,US,19.73,-155.09,1601717000,75.2,83,1,4.7
69,Saint George,US,37.1,-113.58,1601716749,66.2,9,1,4.72
70,Camaná,PE,-16.62,-72.71,1601717001,60.01,80,75,9.51
71,Lorengau,PG,-2.02,147.27,1601717001,81.77,79,72,9.91
72,Tiksi,RU,71.69,128.87,1601717002,25.29,94,0,21.14
73,East London,ZA,-33.02,27.91,1601717003,59.0,93,75,12.75
74,Geraldton,AU,-28.77,114.6,1601717003,62.6,45,0,21.92
75,Chacabuco,AR,-34.64,-60.47,1601717004,39.99,84,10,1.01
76,Emba,KZ,48.83,58.14,1601717005,66.31,26,0,5.23
77,Veinticinco de Mayo,AR,-35.43,-60.17,1601717005,41.0,84,13,1.01
78,Vostok,RU,46.49,135.88,1601717006,42.06,96,0,6.08
79,Buin,CL,-33.73,-70.75,1601717007,45.0,83,5,4.7
80,Mar del Plata,AR,-38.0,-57.56,1601717008,44.01,52,75,11.41
81,Bitam,GA,2.08,11.5,1601717008,75.2,83,90,2.24
82,Marevo,RU,57.31,32.08,1601717009,57.4,63,100,9.22
83,Bethel,US,41.37,-73.41,1601717010,46.0,87,1,3.11
84,Chul'man,RU,56.85,124.91,1601717010,35.83,82,100,11.27
85,San Patricio,MX,19.22,-104.7,1601717011,75.96,88,2,3.85
86,Vestmannaeyjar,IS,63.44,-20.27,1601717011,39.2,86,20,9.17
87,Broome,US,42.25,-75.83,1601717012,44.01,93,90,5.82
88,Bowen,AU,-20.02,148.23,1601717013,71.6,73,40,17.22
89,Arrondissement de Lannion,FR,48.75,-3.42,1601717013,55.4,93,100,24.16
90,Katsuura,JP,35.13,140.3,1601717014,73.4,64,75,9.17
91,Hasaki,JP,35.73,140.83,1601717014,70.0,82,75,5.82
92,Turukhansk,RU,65.82,87.98,1601717015,43.43,95,100,7.63
93,Thompson,CA,55.74,-97.86,1601717003,32.0,99,75,3.36
94,Oussouye,SN,12.48,-16.55,1601717016,84.2,83,40,4.7
95,Parfino,RU,57.97,31.65,1601717017,58.78,63,98,8.68
96,Lüderitz,NA,-26.65,15.16,1601717017,63.66,53,0,8.93
97,Adré,TD,13.47,22.2,1601717018,86.18,47,0,3.6
98,Bat Khela,PK,34.62,71.97,1601717019,87.89,20,0,5.08
99,Mount Gambier,AU,-37.83,140.77,1601717019,57.2,87,98,8.05
100,Yeppoon,AU,-23.13,150.73,1601716858,73.4,56,6,10.29
101,Karlivka,UA,49.46,35.13,1601717021,67.05,52,15,12.46
102,Hong Kong,HK,22.29,114.16,1601716872,88.0,68,0,7.0
103,Ayagoz,KZ,47.97,80.44,1601717022,56.73,35,0,4.88
104,Pontianak,ID,-0.03,109.33,1601717023,84.36,74,100,6.44
105,Sitka,US,57.05,-135.33,1601717023,53.6,93,90,4.7
106,Salisbury,GB,51.07,-1.8,1601716979,55.99,100,100,13.96
107,Mahébourg,MU,-20.41,57.7,1601717024,82.4,51,20,11.41
108,Bathsheba,BB,13.22,-59.52,1601717025,77.0,88,75,13.87
109,Pevek,RU,69.7,170.31,1601717026,32.61,88,100,2.59
110,Ulladulla,AU,-35.35,150.47,1601717026,66.99,59,0,5.82
111,Asbestovskiy,RU,57.76,61.4,1601717027,50.13,67,87,11.18
112,Mitsamiouli,KM,-11.38,43.28,1601717028,84.2,70,75,6.93
113,Chaska,US,44.79,-93.6,1601717029,42.01,65,90,4.7
114,Bredasdorp,ZA,-34.53,20.04,1601717030,60.8,87,100,14.99
115,Cockburn Town,TC,21.46,-71.14,1601717030,82.53,79,100,21.97
116,Busselton,AU,-33.65,115.33,1601717031,60.01,36,37,13.24
117,Mahibadhoo,MV,3.78,72.97,1601717032,82.33,73,100,11.54
118,Ossora,RU,59.24,163.07,1601717032,38.95,72,0,8.66
119,Chui,UY,-33.7,-53.46,1601717033,47.39,74,53,13.96
120,Kidal,ML,18.44,1.41,1601717034,92.39,32,29,9.66
121,Nikolskoye,RU,59.7,30.79,1601717034,62.01,71,27,8.95
122,Melilla,ES,35.29,-2.94,1601717035,66.2,52,21,20.8
123,Isangel,VU,-19.55,169.27,1601717035,69.8,94,20,5.82
124,Constitución,CL,-35.33,-72.42,1601717036,44.24,71,0,7.16
125,Muncar,ID,-8.43,114.33,1601717037,82.38,74,46,8.79
126,Meulaboh,ID,4.14,96.13,1601717037,82.29,75,100,3.22
127,Jamestown,US,42.1,-79.24,1601717038,42.01,100,20,3.36
128,Kamaishi,JP,39.27,141.88,1601717038,66.2,88,75,4.7
129,Luebo,CD,-5.35,21.42,1601717039,92.34,45,100,1.45
130,Adrar,MR,20.5,-10.07,1601717040,82.96,24,0,11.01
131,Barabai,ID,-2.58,115.38,1601717041,89.78,51,76,4.03
132,Gwadar,PK,25.12,62.33,1601717042,94.82,28,0,6.24
133,Atar,MR,20.52,-13.05,1601717042,78.8,44,0,16.11
134,Butaritari,KI,3.07,172.79,1601717043,81.84,68,99,7.34
135,Khatanga,RU,71.97,102.5,1601717044,26.47,97,96,10.16
136,Sovetskiy,RU,61.36,63.58,1601717045,42.04,64,93,14.45
137,Son La,VN,21.32,103.9,1601717045,83.07,75,98,3.22
138,Vardø,NO,70.37,31.11,1601717046,48.36,87,95,14.5
139,Havøysund,NO,71.0,24.66,1601717046,53.6,71,1,19.46
140,Touros,BR,-5.2,-35.46,1601716998,71.6,94,20,3.36
141,Tilichiki,RU,60.47,166.1,1601717047,31.3,90,0,10.74
142,Iracoubo,GF,5.48,-53.2,1601717048,78.85,86,14,10.16
143,Poum,NC,-20.23,164.02,1601717049,71.8,76,54,19.48
144,Maniitsoq,GL,65.42,-52.9,1601717050,33.8,85,100,3.09
145,Road Town,VG,18.42,-64.62,1601717050,80.6,74,20,9.17
146,Chokurdakh,RU,70.63,147.92,1601717051,27.68,87,30,11.27
147,Kosh-Agach,RU,50.0,88.67,1601717052,44.62,47,0,1.01
148,Dhārchula,IN,29.85,80.53,1601717052,81.36,32,0,6.49
149,Ust-Nera,RU,64.57,143.2,1601717053,26.4,80,0,6.6
150,San Cristobal,VE,7.77,-72.22,1601717054,63.81,82,11,2.15
151,Srednekolymsk,RU,67.45,153.68,1601717054,29.08,91,63,4.03
152,Serebryansk,KZ,49.69,83.29,1601717055,53.6,54,0,4.47
153,Kununurra,AU,-15.77,128.73,1601717055,93.2,38,91,5.82
154,Luanda,AO,-8.84,13.23,1601716962,78.8,65,75,3.36
155,Qaanaaq,GL,77.48,-69.36,1601717057,22.46,84,80,6.06
156,Cabo San Lucas,MX,22.89,-109.91,1601717023,78.01,75,0,1.99
157,Qarqīn,AF,37.42,66.04,1601717058,79.81,15,0,3.74
158,Scarborough,GB,54.28,-0.4,1601717059,55.99,95,100,3.0
159,Baruun-Urt,MN,46.68,113.28,1601717060,34.25,83,99,15.52
160,Dawson Creek,CA,55.77,-120.24,1601717060,41.0,93,1,4.23
161,Saint-Philippe,RE,-21.36,55.77,1601717061,80.6,69,75,8.05
162,Borgarnes,IS,64.54,-21.92,1601717062,36.0,86,100,4.7
163,Ahipara,NZ,-35.17,173.17,1601717062,53.26,80,7,2.33
164,Akşehir,TR,38.36,31.42,1601717063,70.68,25,0,3.58
165,Belyy Yar,RU,53.6,91.39,1601717063,48.2,45,34,6.71
166,Beruwala,LK,6.48,79.98,1601717064,82.2,79,99,11.86
167,Cabedelo,BR,-6.98,-34.83,1601717065,73.4,94,75,5.82
168,Leningradskiy,RU,69.38,178.42,1601717065,32.16,95,100,11.25
169,Outlook,CA,51.5,-107.05,1601717066,42.01,75,5,1.99
170,Shingū,JP,33.73,135.98,1601717067,75.2,73,75,6.93
171,Ongandjera,NA,-17.88,15.07,1601717068,83.64,13,98,5.03
172,Richards Bay,ZA,-28.78,32.04,1601717069,64.27,91,100,6.33
173,Tasiilaq,GL,65.61,-37.64,1601717070,32.0,96,72,5.82
174,Vila Franca do Campo,PT,37.72,-25.43,1601717070,68.0,77,40,9.17
175,Zaranj,AF,30.97,61.88,1601717071,93.2,13,0,24.16
176,Shellbrook,CA,53.22,-106.4,1601717072,39.2,93,75,2.98
177,Pisco,PE,-13.7,-76.22,1601717072,60.01,93,61,8.05
178,Parkhill,CA,43.15,-81.68,1601717073,42.01,84,100,6.02
179,Namtsy,RU,62.72,129.67,1601717073,33.8,64,67,4.47
180,Kruisfontein,ZA,-34.0,24.73,1601717074,60.01,86,100,7.0
181,Port Maria,JM,18.37,-76.89,1601717075,82.4,74,40,26.4
182,Tuktoyaktuk,CA,69.45,-133.04,1601717075,41.85,86,100,15.19
183,Sept-Îles,CA,50.2,-66.38,1601717024,45.0,100,75,4.7
184,Béboto,TD,8.27,16.94,1601717076,85.75,66,0,2.93
185,Kostomuksha,RU,64.57,30.58,1601717077,45.19,93,100,8.95
186,Emerald,AU,-23.53,148.17,1601717078,80.6,30,0,17.22
187,Birao,CF,10.28,22.79,1601717078,85.64,65,57,4.79
188,Saint-Augustin,CA,51.23,-58.65,1601717079,49.91,94,21,8.86
189,Hibbing,US,47.43,-92.94,1601716908,30.2,92,90,3.11
190,Tura,IN,25.52,90.22,1601717080,84.42,75,33,4.36
191,Kahului,US,20.89,-156.47,1601717081,78.8,74,75,6.93
192,Kodinsk,RU,58.69,99.18,1601717081,41.27,69,99,7.76
193,Nyurba,RU,63.28,118.33,1601717082,35.69,77,4,8.34
194,Saint Paul Harbor,US,57.79,-152.41,1601717083,48.2,70,75,14.99
195,Laas,IT,46.62,10.7,1601717083,60.01,100,90,9.17
196,Makkah al Mukarramah,SA,21.43,39.83,1601717084,102.4,18,0,11.5
197,Hays,US,30.05,-98.03,1601717084,60.01,81,0,6.46
198,Utiel,ES,39.57,-1.2,1601717085,55.99,53,4,4.0
199,Skjervøy,NO,70.03,20.97,1601716927,51.37,75,0,9.42
200,Kudahuvadhoo,MV,2.67,72.89,1601717087,81.41,76,100,13.8
201,Rūdbār,AF,30.15,62.6,1601717087,92.43,11,0,20.38
202,Tabou,CI,4.42,-7.35,1601717088,78.39,86,100,9.57
203,Fortuna,US,40.6,-124.16,1601717088,55.0,96,0,1.74
204,Kondoa,TZ,-4.9,35.78,1601717089,86.04,20,90,9.98
205,Lebu,CL,-37.62,-73.65,1601717090,43.41,80,53,4.74
206,Portland,US,45.52,-122.68,1601716919,59.0,93,90,4.7
207,Inhambane,MZ,-23.86,35.38,1601717091,82.4,61,75,13.87
208,Raudeberg,NO,61.99,5.14,1601717091,63.0,63,100,5.82
209,Enterprise,US,36.03,-115.24,1601717027,72.0,12,1,2.1
210,San Policarpo,PH,12.18,125.51,1601717092,83.41,78,77,6.33
211,Barrow,US,71.29,-156.79,1601716860,33.8,100,90,12.75
212,Tandil,AR,-37.32,-59.13,1601717094,30.33,97,0,7.09
213,Dauphin,CA,51.15,-100.05,1601717095,33.8,100,1,9.17
214,Upernavik,GL,72.79,-56.15,1601717095,34.59,88,100,13.91
215,Lavrentiya,RU,65.58,-171.0,1601717096,40.68,84,65,12.97
216,Nishihara,JP,26.18,127.76,1601717097,82.4,54,20,6.93
217,Namatanai,PG,-3.67,152.43,1601717097,80.91,80,87,7.9
218,Ribeira Grande,PT,38.52,-28.7,1601717098,71.6,68,75,5.82
219,Lucea,JM,18.45,-78.17,1601717098,77.0,88,20,2.24
220,Curillo,CO,1.03,-75.92,1601717099,69.84,97,92,1.63
221,Cairns,AU,-16.92,145.77,1601717100,75.2,60,40,19.46
222,Magugu,TZ,-4.02,35.77,1601717100,92.03,21,8,5.88
223,Bongor,TD,10.28,15.37,1601717101,83.52,73,100,6.29
224,Kaitangata,NZ,-46.28,169.85,1601717102,57.99,77,100,14.0
225,Hay River,CA,60.82,-115.8,1601717104,48.2,81,75,9.17
226,Murray Bridge,AU,-35.12,139.27,1601717104,72.0,59,99,6.87
227,Port Hedland,AU,-20.32,118.57,1601717105,95.0,17,65,24.16
228,Fairbanks,US,64.84,-147.72,1601716945,55.0,59,90,6.93
229,Beloha,MG,-25.17,45.05,1601717106,82.53,41,1,13.27
230,Olafsvik,IS,64.89,-23.71,1601717107,39.67,73,100,10.31
231,Ust-Kuyga,RU,70.02,135.6,1601717107,32.05,87,100,13.04
232,Chirongui,YT,-12.93,45.15,1601717108,84.2,70,34,8.05
233,Guerrero Negro,MX,27.98,-114.06,1601717109,73.78,66,0,6.02
234,Apucarana,BR,-23.55,-51.46,1601717109,78.8,39,13,1.12
235,Kumul,CN,42.8,93.45,1601717110,66.4,21,41,1.39
236,Pimentel,PE,-6.84,-79.93,1601717110,60.73,92,68,9.55
237,Santa Cruz de la Sierra,BO,-17.8,-63.17,1601717086,71.6,88,5,5.44
238,Durg,IN,21.18,81.28,1601716877,90.99,41,9,5.99
239,Faanui,PF,-16.48,-151.75,1601717112,78.19,79,20,18.12
240,Marawi,PH,8.0,124.29,1601717113,82.99,80,97,3.0
241,Kolvereid,NO,64.87,11.6,1601717113,55.4,71,3,21.92
242,Kysyl-Syr,RU,63.9,122.76,1601717114,33.62,82,41,7.58
243,Seymchan,RU,62.88,152.43,1601717115,34.79,84,0,4.09
244,Bengkulu,ID,-3.8,102.27,1601717116,83.1,70,97,6.58
245,Chadan,RU,51.28,91.58,1601717116,48.72,45,19,4.43
246,Kalmunai,LK,7.42,81.82,1601717117,87.98,58,81,11.39
247,Bontang,ID,0.13,117.5,1601717118,83.75,78,100,7.11
248,Hualmay,PE,-11.1,-77.61,1601717118,60.73,88,61,7.63
249,Bandarbeyla,SO,9.49,50.81,1601717119,83.37,67,68,13.89
250,Hithadhoo,MV,-0.6,73.08,1601716871,83.1,75,73,12.93
251,Jinan,CN,36.67,117.0,1601717120,66.99,53,97,1.01
252,Locri,IT,38.24,16.26,1601717121,78.8,78,71,23.04
253,Lima,PE,-12.04,-77.03,1601717088,60.8,87,90,4.7
254,Klaksvík,FO,62.23,-6.59,1601717122,50.0,87,99,19.46
255,Chumikan,RU,54.72,135.31,1601717122,48.85,81,100,17.07
256,Itarema,BR,-2.92,-39.92,1601717123,77.83,76,23,15.79
257,Talara,PE,-4.58,-81.27,1601717123,63.48,85,98,15.03
258,Tiznit Province,MA,29.58,-9.5,1601717124,65.59,66,8,4.41
259,Carauari,BR,-4.88,-66.9,1601716885,73.8,81,9,1.79
260,New Norfolk,AU,-42.78,147.06,1601717125,55.99,76,100,4.0
261,Aksu,CN,41.12,80.26,1601717126,69.67,23,69,3.24
262,Ubari,LY,26.59,12.78,1601717126,95.32,10,0,20.22
263,Chapais,CA,49.78,-74.85,1601717127,28.4,92,75,3.87
264,Tromsø,NO,69.65,18.96,1601717128,50.0,76,0,18.34
265,Ponta do Sol,PT,32.67,-17.1,1601717129,73.0,73,40,12.75
266,Challapata,BO,-18.9,-66.77,1601717129,46.09,75,32,0.81
267,Severobaykal'sk,RU,55.65,109.32,1601717130,38.86,65,0,4.18
268,Janaúba,BR,-15.8,-43.31,1601717131,66.2,65,16,3.42
269,Brae,GB,60.4,-1.35,1601717131,55.4,93,75,23.04
270,Santa Vitória do Palmar,BR,-33.52,-53.37,1601717132,47.84,75,60,13.09
271,Mahanoro,MG,-19.9,48.8,1601717133,79.32,69,76,8.68
272,Belūsovka,KZ,50.13,82.52,1601717133,53.6,54,0,4.47
273,Manokwari,ID,-0.87,134.08,1601717134,82.83,73,86,3.06
274,Bilma,NE,18.69,12.92,1601717135,98.89,19,0,3.96
275,Shenjiamen,CN,29.96,122.3,1601717135,75.78,87,1,8.61
276,Itaberaí,BR,-16.02,-49.81,1601717136,72.1,29,16,3.15
277,Sabha,LY,27.04,14.43,1601717137,98.94,9,43,25.64
278,Okha,RU,53.57,142.95,1601717138,49.35,83,100,15.55
279,Plettenberg Bay,ZA,-34.05,23.37,1601717138,58.32,88,100,18.43
280,Cayenne,GF,4.93,-52.33,1601717139,73.4,100,20,2.24
281,Aklavik,CA,68.22,-135.01,1601717043,42.8,87,90,9.17
282,Eureka,US,40.8,-124.16,1601717140,55.0,100,90,1.88
283,Kavaratti,IN,10.57,72.64,1601717141,87.8,70,40,5.82
284,Alofi,NU,-19.06,-169.92,1601717142,77.0,94,87,8.05
285,Port Blair,IN,11.67,92.75,1601716986,80.35,78,100,13.2
286,Coahuayana Viejo,MX,18.73,-103.68,1601717143,72.82,57,0,5.41
287,Pierre,US,44.37,-100.35,1601717144,44.01,87,90,5.26
288,Souillac,MU,-20.52,57.52,1601717144,82.4,51,20,11.41
289,Xiongzhou,CN,25.12,114.3,1601717145,88.27,66,34,2.1
290,Roald,NO,62.58,6.13,1601717145,63.0,51,0,12.75
291,Barreirinhas,BR,-2.75,-42.83,1601717146,79.93,70,81,13.02
292,Banganapalle,IN,15.32,78.23,1601717146,90.05,54,85,11.88
293,Horqueta,PY,-23.34,-57.06,1601717147,76.12,53,7,3.33
294,Dori,BF,14.04,-0.03,1601717148,87.57,47,49,9.06
295,Omboué,GA,-1.57,9.26,1601717148,80.11,73,100,3.02
296,Clovis,US,36.83,-119.7,1601717004,71.6,56,90,3.36
297,Tooele,US,40.53,-112.3,1601716966,57.0,49,1,6.93
298,Iqaluit,CA,63.75,-68.51,1601717150,30.2,80,90,2.24
299,Oktyabr'skiy,RU,54.48,53.47,1601717151,62.94,58,0,7.38
300,Santa Lucía,ES,27.91,-15.54,1601717152,75.2,64,75,18.34
301,Cap Malheureux,MU,-19.98,57.61,1601717152,82.4,51,20,11.41
302,Swan Hill,AU,-35.34,143.55,1601717153,72.77,37,20,8.75
303,Celestún,MX,20.87,-90.4,1601717154,79.16,83,97,24.92
304,Rabat,MA,33.99,-6.84,1601717154,68.0,60,75,9.17
305,Paripiranga,BR,-10.69,-37.86,1601717155,65.21,96,9,3.94
306,Tucumã,BR,-0.18,-50.05,1601717156,77.27,86,7,5.53
307,Korla,CN,41.76,86.15,1601717156,67.05,22,96,7.78
308,Bambanglipuro,ID,-7.95,110.28,1601717157,86.0,58,33,16.08
309,Thinadhoo,MV,0.53,72.93,1601717158,82.76,74,100,14.58
310,Canavieiras,BR,-15.68,-38.95,1601717158,70.12,87,56,2.46
311,Strezhevoy,RU,60.73,77.59,1601717159,48.2,87,75,8.95
312,Barillas,GT,15.8,-91.32,1601717159,59.74,92,86,1.59
313,Dali,CN,25.7,100.18,1601717160,74.1,65,30,6.78
314,Merauke,ID,-8.47,140.33,1601717106,80.55,77,100,12.84
315,Miracatu,BR,-24.28,-47.46,1601717161,71.37,88,100,3.13
316,Spencer,US,43.14,-95.14,1601717162,44.6,65,90,4.7
317,Bondoukou,CI,8.03,-2.8,1601717162,73.33,92,100,3.96
318,Deputatsky,RU,69.3,139.9,1601717163,23.34,94,100,12.86
319,Coquimbo,CL,-29.95,-71.34,1601717164,46.4,87,0,3.36
320,Patrocínio,BR,-18.94,-46.99,1601717164,68.86,34,41,3.47
321,Narsaq,GL,60.92,-46.05,1601717165,37.4,86,75,0.63
322,Goundi,TD,9.36,17.37,1601717166,85.93,65,46,3.71
323,Tirumullaivāsal,IN,11.23,79.83,1601717166,91.89,57,38,9.8
324,Labuan,MY,5.28,115.24,1601717167,84.0,83,20,3.36
325,Kutum,SD,14.2,24.67,1601717168,86.7,32,0,7.76
326,Igarka,RU,67.47,86.58,1601717168,33.67,95,100,14.45
327,Saint-François,FR,46.42,3.91,1601717169,57.2,62,78,16.11
328,Port-Gentil,GA,-0.72,8.78,1601717169,84.2,70,75,10.29
329,Hambantota,LK,6.12,81.12,1601717170,91.4,63,40,21.92
330,Ifanadiana,MG,-21.3,47.63,1601717171,77.81,64,66,5.17
331,Arraial do Cabo,BR,-22.97,-42.03,1601717171,73.4,94,1,8.05
332,Esso,RU,55.93,158.7,1601717172,34.56,84,0,4.85
333,São Mateus do Maranhão,BR,-4.04,-44.48,1601717172,74.35,88,100,2.73
334,Poronaysk,RU,49.22,143.12,1601717173,56.19,92,100,16.8
335,Nampula,MZ,-15.12,39.27,1601717174,89.6,35,13,4.7
336,Kilindoni,TZ,-7.91,39.67,1601717174,80.74,67,37,5.97
337,Beringovskiy,RU,63.05,179.32,1601717176,39.29,89,100,24.16
338,Vacaria,BR,-28.51,-50.93,1601717177,57.0,82,98,8.99
339,Severnyy,RU,50.68,36.55,1601717177,64.4,34,58,13.42
340,Mayo,US,38.89,-76.51,1601717178,55.4,81,1,8.05
341,Mount Isa,AU,-20.73,139.5,1601717179,86.0,14,66,6.93
342,Homer,US,59.64,-151.55,1601717179,51.01,73,100,8.01
343,Kralendijk,BQ,12.15,-68.27,1601717180,82.4,83,81,13.87
344,Belawan,ID,3.78,98.68,1601717181,81.01,77,100,6.89
345,Padang,ID,-0.95,100.35,1601717181,83.12,65,84,4.61
346,Geelong,AU,-38.15,144.36,1601717111,66.99,72,96,14.99
347,Zabid,YE,14.2,43.32,1601717183,98.73,27,0,11.16
348,Mahina,PF,-17.51,-149.49,1601717184,77.0,83,40,3.36
349,Dombarovskiy,RU,50.76,59.54,1601717184,62.62,38,0,8.08
350,West Wendover,US,40.74,-114.07,1601717185,51.8,34,1,3.71
351,Kisangani,CD,0.52,25.2,1601717185,89.26,51,40,2.57
352,Santiago del Estero,AR,-27.8,-64.26,1601717089,55.15,74,99,16.11
353,Waingapu,ID,-9.66,120.26,1601717186,87.21,43,29,12.03
354,Saint Augustine,US,29.89,-81.31,1601716935,64.99,88,20,6.93
355,Kiryat Gat,IL,31.61,34.76,1601717188,82.99,59,0,1.99
356,Ancud,CL,-41.87,-73.82,1601717188,37.99,75,0,6.93
357,Oga,IT,46.46,10.35,1601717189,62.01,93,90,10.29
358,Wanning,CN,18.8,110.4,1601717189,84.16,80,91,7.09
359,Grand Gaube,MU,-20.01,57.66,1601717190,82.4,51,20,11.41
360,Malbork,PL,54.04,19.03,1601717191,63.0,100,76,18.59
361,Yulara,AU,-25.24,130.99,1601717192,95.0,6,0,16.11
362,Monrovia,LR,6.3,-10.8,1601717192,79.66,82,100,9.22
363,Erzin,TR,36.96,36.2,1601717193,79.0,67,0,5.66
364,Polunochnoye,RU,60.87,60.42,1601717193,44.44,59,68,9.75
365,Santiago,CL,-33.46,-70.65,1601717151,45.0,56,0,4.7
366,Chicama,PE,-7.84,-79.15,1601717196,62.4,84,73,3.69
367,Businga,CD,3.33,20.88,1601717196,88.48,47,92,2.06
368,Zhigansk,RU,66.77,123.37,1601717197,33.46,89,100,15.32
369,Yar-Sale,RU,66.83,70.83,1601717197,37.63,72,83,21.39
370,Evensk,RU,61.95,159.23,1601717198,35.82,83,40,1.72
371,Bud,US,39.45,-86.18,1601717199,45.0,75,90,3.94
372,Sydney Mines,CA,46.24,-60.22,1601717199,59.0,100,90,5.82
373,Husavik,IS,66.04,-17.34,1601717200,32.0,90,75,3.36
374,Mokhsogollokh,RU,61.47,128.92,1601717200,34.03,85,96,3.04
375,Birnin Kebbi,NG,12.45,4.2,1601717141,83.46,65,99,5.19
376,Koumac,NC,-20.57,164.28,1601717201,70.02,76,41,18.77
377,Luena,AO,-11.78,19.92,1601717202,92.91,33,0,0.81
378,Shumikha,RU,55.23,63.3,1601717203,58.91,66,82,13.11
379,Airai,TL,-8.93,125.41,1601717203,67.93,73,85,4.14
380,Carnarvon,AU,-24.87,113.63,1601717204,69.8,43,0,24.16
381,Kharhiāl,IN,20.28,82.77,1601717205,88.52,61,58,5.53
382,Mushie,CD,-3.02,16.9,1601717205,88.9,55,1,3.24
383,Dābhol,IN,17.6,73.17,1601717206,85.35,69,14,6.76
384,Nizhneangarsk,RU,55.78,109.55,1601717207,38.32,66,1,2.89
385,Songkhla,TH,6.83,100.67,1601717016,80.6,88,75,13.87
386,Walvis Bay,NA,-22.96,14.51,1601717208,62.6,55,0,4.7
387,Honningsvåg,NO,70.98,25.97,1601717208,49.24,82,7,22.55
388,San Luis,AR,-33.3,-66.34,1601717209,44.4,69,28,15.64
389,Kjøpsvik,NO,68.1,16.37,1601717209,55.0,66,10,5.82
390,Umm Kaddadah,SD,13.6,26.69,1601717210,91.33,36,0,4.52
391,Santa Cruz del Norte,CU,23.15,-81.92,1601717210,75.2,100,20,4.7
392,Vigía del Fuerte,CO,6.58,-76.89,1601717211,72.45,96,65,1.79
393,Wagar,SD,16.15,36.2,1601717106,102.15,14,18,18.32
394,Florence,IT,43.77,11.25,1601717009,60.8,82,75,5.82
395,Platteville,US,42.73,-90.48,1601717213,44.6,93,90,4.7
396,Katherine,AU,-14.47,132.27,1601717214,93.2,23,100,8.05
397,Lázaro Cárdenas,MX,17.96,-102.2,1601717214,75.36,60,29,6.8
398,Margate,GB,51.38,1.39,1601717215,55.0,97,90,1.99
399,Arrondissement de Saint-Denis,FR,48.92,2.33,1601717215,55.4,76,20,9.17
400,Mtsensk,RU,53.28,36.57,1601717216,63.39,46,100,12.21
401,Gaomi,CN,36.38,119.75,1601717217,68.0,68,100,2.24
402,Shitanjing,CN,39.23,106.34,1601717217,47.12,44,0,19.51
403,Pangnirtung,CA,66.15,-65.71,1601717218,25.11,88,67,3.38
404,Juazeiro,BR,-9.41,-40.5,1601717151,71.6,78,75,10.29
405,Gravdal,NO,68.12,13.5,1601717219,53.6,71,0,2.24
406,Atambua,ID,-9.11,124.89,1601717219,79.38,64,80,1.07
407,Kindu,CD,-2.95,25.95,1601717221,85.84,59,70,3.38
408,Nador,MA,35.17,-2.93,1601717221,66.2,52,42,20.8
409,Rutland,US,43.62,-73.02,1601717161,43.0,100,90,3.36
410,Pochutla,MX,15.74,-96.47,1601717222,75.0,89,38,3.91
411,Pag,HR,44.45,15.06,1601717223,77.0,69,20,33.33
412,Kapoeta,SS,4.77,33.59,1601717224,88.92,38,32,14.76
413,Port Macquarie,AU,-31.43,152.92,1601717224,63.0,80,0,13.51
414,Marquette,US,46.53,-87.63,1601717225,37.0,90,98,1.01
415,Golubitskaya,RU,45.32,37.28,1601717225,73.4,56,88,6.71
416,Pundaguitan,PH,6.37,126.17,1601717226,84.94,72,85,8.48
417,São Filipe,CV,14.9,-24.5,1601717227,80.69,74,18,9.19
418,Seoul,KR,37.57,126.98,1601717117,71.6,46,75,7.29
419,Kulhudhuffushi,MV,6.62,73.07,1601717228,81.95,76,100,14.43
420,Manmād,IN,20.25,74.45,1601717021,89.06,41,32,9.24
421,Paamiut,GL,61.99,-49.67,1601717229,36.5,87,70,1.7
422,Marsh Harbour,BS,26.54,-77.06,1601717230,82.44,79,100,15.5
423,Kang,BW,-23.68,22.79,1601717230,83.75,18,0,3.09
424,Ha Giang,VN,22.83,104.98,1601717231,86.99,65,57,4.07
425,Bantou,CN,26.22,117.49,1601717232,85.32,64,95,3.11
426,Brownsville,US,25.9,-97.5,1601717232,75.0,93,1,3.58
427,Dabakala,CI,8.37,-4.43,1601717233,75.76,88,100,4.63
428,Yumen,CN,40.28,97.2,1601717234,57.13,28,0,23.33
429,Comodoro Rivadavia,AR,-45.87,-67.5,1601717234,33.8,64,0,3.36
430,São José da Coroa Grande,BR,-8.9,-35.15,1601717235,75.85,81,65,9.75
431,Lagoa,PT,39.05,-27.98,1601717235,68.88,80,100,17.9
432,Buala,SB,-8.14,159.59,1601717106,80.51,77,0,5.7
433,Koszalin,PL,54.19,16.17,1601717236,61.0,76,36,16.8
434,Batagay,RU,67.63,134.63,1601717237,33.78,76,100,14.34
435,Doha,QA,25.29,51.53,1601717043,100.4,35,0,8.05
436,Flinders,AU,-34.58,150.86,1601717238,68.0,72,0,1.01
437,Olinda,BR,-8.01,-34.86,1601717239,80.6,65,33,9.17
438,Nanzhou,CN,29.36,112.4,1601717240,59.25,93,99,11.63
439,Ostrovnoy,RU,68.05,39.51,1601717240,43.79,62,95,8.99
440,Ixtapa,MX,20.7,-105.2,1601717241,78.01,73,4,4.43
441,Parabel',RU,58.7,81.48,1601717242,54.16,79,100,12.88
442,Liepāja,LV,56.54,21.04,1601717243,57.2,82,84,14.99
443,Torbay,CA,47.67,-52.73,1601717243,69.01,100,90,17.22
444,Urucará,BR,-2.54,-57.76,1601717244,75.49,81,54,2.35
445,La Libertad,EC,-2.23,-80.9,1601717245,67.28,86,100,7.31
446,Māngrol,IN,21.12,70.12,1601717245,85.66,66,7,9.84
447,Bima,ID,-8.47,118.72,1601717246,87.67,52,17,3.24
448,Hamilton,US,39.18,-84.53,1601717240,48.0,81,36,2.15
449,Babu,CN,24.42,111.52,1601717247,88.63,62,98,5.08
450,Kavieng,PG,-2.57,150.8,1601716986,83.12,73,61,10.63
451,Perry,US,37.25,-83.2,1601717248,44.6,81,1,1.45
452,Zhezkazgan,KZ,47.8,67.71,1601717249,62.6,33,0,6.71
453,Tolaga Bay,NZ,-38.37,178.3,1601717250,55.81,66,0,7.9
454,Amahai,ID,-3.33,128.92,1601717250,77.99,87,100,3.89
455,Altukhovo,RU,52.67,34.36,1601717251,64.4,42,20,11.18
456,De Aar,ZA,-30.65,24.01,1601717252,61.12,33,0,13.51
457,Progreso,MX,21.28,-89.67,1601717252,75.0,96,99,24.94
458,Puerto Colombia,CO,10.99,-74.95,1601717253,77.0,100,40,5.82
459,Madera,US,37.17,-119.83,1601717131,70.0,72,90,5.82
460,Klichka,RU,50.45,118.0,1601717254,40.86,84,100,10.0
461,Praia,CV,14.92,-23.51,1601717255,80.6,74,20,24.16
462,Havelock,US,34.88,-76.9,1601717255,62.01,72,20,9.17
463,São João da Barra,BR,-21.64,-41.05,1601717256,73.4,94,0,11.41
464,Zhanjiang,CN,21.28,110.34,1601717257,83.53,79,23,13.38
465,Tutóia,BR,-2.76,-42.27,1601717258,77.47,78,74,13.04
466,General Roca,AR,-39.03,-67.58,1601717258,39.2,72,75,10.29
467,Lyubech,UA,51.7,30.66,1601717259,64.54,61,78,11.95
468,Qaqortoq,GL,60.72,-46.03,1601717259,37.4,86,75,5.64
469,Burnie,AU,-41.07,145.92,1601717261,60.01,72,100,8.01
470,Guangyuan,CN,32.44,105.82,1601717261,70.0,96,100,15.01
471,South Yuba City,US,39.12,-121.64,1601717262,64.4,67,90,2.06
472,Kollam,IN,8.88,76.6,1601717262,86.0,84,20,9.17
473,San Borja,BO,-14.82,-66.85,1601717263,75.43,63,0,1.7
474,Oistins,BB,13.07,-59.53,1601717264,77.0,88,75,13.87
475,Barra Patuca,HN,15.8,-84.28,1601717264,75.25,92,99,6.35
476,Grand Forks,US,47.93,-97.03,1601717265,42.8,75,90,1.36
477,Manyana,BW,-23.4,21.72,1601717266,83.37,13,8,2.98
478,Bambous Virieux,MU,-20.34,57.76,1601717266,82.4,51,20,11.41
479,Opuwo,NA,-18.06,13.84,1601717267,86.05,11,82,4.63
480,Bethanien,NA,-26.5,17.16,1601717268,67.5,23,0,7.92
481,Nelson Bay,AU,-32.72,152.15,1601717268,68.0,72,0,10.29
482,Antofagasta,CL,-23.65,-70.4,1601717239,57.2,76,90,4.7
483,Leopold,AU,-38.18,144.47,1601717269,66.99,72,95,14.99
484,Henties Bay,NA,-22.12,14.28,1601717270,55.99,85,4,8.61
485,Provideniya,RU,64.38,-173.3,1601717271,41.58,85,84,11.25
486,Sørland,NO,67.67,12.69,1601717271,55.4,76,0,11.41
487,Leer,SS,8.3,30.14,1601717272,87.4,71,13,1.57
488,Inírida,CO,3.87,-67.92,1601717273,71.4,97,23,2.28
489,Vila Velha,BR,-20.33,-40.29,1601717273,75.99,83,17,13.87
490,Yangi Marg`ilon,UZ,40.43,71.72,1601717274,71.6,18,0,9.17
491,Cuicatlan,MX,17.8,-96.97,1601717275,63.45,70,88,0.07
492,Haines Junction,CA,60.75,-137.51,1601717276,41.13,79,0,7.2
493,Imeni Zhelyabova,RU,58.95,36.6,1601717277,59.04,63,100,6.33
494,Camacha,PT,33.08,-16.33,1601717277,69.8,88,40,14.99
495,Rawson,AR,-43.3,-65.1,1601717278,36.05,78,0,12.12
496,Jalu,LY,29.03,21.55,1601717279,96.93,19,0,15.5
497,Fairview,US,40.81,-74.0,1601717279,55.4,71,1,5.82
498,Sinnamary,GF,5.38,-52.95,1601717280,78.28,88,32,9.8
499,Wasilla,US,61.58,-149.44,1601717280,55.4,54,90,13.87
500,Bosaso,SO,11.28,49.18,1601717281,87.8,70,40,8.05
501,Luján,AR,-34.57,-59.1,1601717282,44.01,81,0,11.77
502,Porto Torres,IT,40.84,8.4,1601717282,68.0,68,40,16.11
503,Dolinsk,RU,47.35,142.8,1601717283,57.2,87,75,8.95
504,Praia da Vitória,PT,38.73,-27.07,1601717284,70.0,83,75,15.3
505,Powell River,CA,49.85,-124.54,1601717284,59.0,87,5,2.91
506,Sur,OM,22.57,59.53,1601717285,92.75,32,0,7.9
507,Ingham,US,42.6,-84.38,1601717285,39.2,93,1,4.97
508,Ordynskoye,RU,54.37,81.9,1601717286,55.13,58,2,10.71
509,Ljubinje,BA,42.95,18.09,1601717287,78.8,57,40,14.99
510,Abapó,BO,-18.83,-63.47,1601717288,67.84,57,86,3.6
511,Iranshahr,IR,27.2,60.68,1601717288,98.6,13,0,9.17
512,Hervey Bay,AU,-25.3,152.85,1601717289,70.0,75,0,4.0
513,High Level,CA,58.52,-117.14,1601717290,44.6,87,75,5.82
514,Umluj,SA,25.02,37.27,1601717290,93.54,42,14,18.05
515,Chernyshevskiy,RU,63.01,112.47,1601717291,33.28,88,97,10.85
516,Khani,GE,41.96,42.96,1601717291,77.0,50,1,4.7
517,Boa Vista,BR,2.82,-60.67,1601717110,78.8,78,66,2.24
518,Necochea,AR,-38.55,-58.74,1601717293,42.01,65,81,8.01
519,Manavālakurichi,IN,8.13,77.3,1601717294,86.0,84,20,9.17
520,Truth or Consequences,US,33.13,-107.25,1601717294,62.6,13,1,5.82
521,Abhā,SA,18.22,42.51,1601717295,78.8,12,0,9.17
522,Basqal,AZ,40.76,48.39,1601717295,75.2,50,20,4.7
523,Nibbar,TN,36.29,8.77,1601717296,75.2,64,40,11.41
524,Makakilo City,US,21.35,-158.09,1601717199,78.8,78,1,3.36
525,Sioux Lookout,CA,50.1,-91.92,1601717196,35.6,74,90,4.7
526,Havre-St-Pierre,CA,50.23,-63.6,1601717298,48.2,93,90,8.05
527,Exeter,GB,50.72,-3.53,1601717298,54.0,93,75,14.99
528,Östersund,SE,63.18,14.64,1601717299,48.2,87,100,9.17
529,Macon,US,39.87,-88.97,1601717299,44.6,93,90,3.36
530,Karibib,NA,-21.93,15.83,1601717300,78.44,12,1,4.18
531,Newport,GB,51.59,-3.0,1601717301,55.99,94,100,4.0
532,Tsabong,BW,-26.02,22.4,1601717301,72.54,19,0,0.89
533,Tigzirt,DZ,36.89,4.12,1601717302,62.85,67,100,11.65
534,Ust'-Ishim,RU,57.69,71.17,1601717303,51.31,81,98,9.6
535,Huarmey,PE,-10.07,-78.15,1601717304,60.96,88,69,8.14
536,Nome,US,64.5,-165.41,1601717304,46.99,75,90,8.05
537,Verāval,IN,20.9,70.37,1601717305,86.0,67,20,9.91
538,Kollegāl,IN,12.15,77.12,1601717306,86.0,55,40,17.22
539,Karasburg,NA,-28.02,18.75,1601717306,65.53,26,0,5.57
540,Prince Rupert,CA,54.32,-130.32,1601717307,57.2,93,90,3.36
541,Rocha,UY,-34.48,-54.33,1601717307,42.4,73,5,10.36
542,Puksoozero,RU,62.59,40.61,1601717308,49.5,75,59,6.64
543,Leh,IN,34.17,77.58,1601717309,56.03,21,0,9.06
544,Jilib,SO,0.49,42.79,1601717310,91.6,45,35,10.78
545,Big Spring,US,32.25,-101.48,1601717311,66.99,48,1,16.11
546,Sunndalsøra,NO,62.68,8.55,1601717311,60.8,51,70,23.04
547,Tefé,BR,-3.35,-64.71,1601717312,73.94,95,61,2.46
548,Noumea,NC,-22.28,166.46,1601717313,68.0,68,54,18.34
549,Pryazha,RU,61.69,33.62,1601717314,48.2,100,90,6.71
550,Cañar,EC,-2.55,-78.93,1601717314,46.4,100,81,3.36
551,Lichinga,MZ,-13.31,35.24,1601717315,77.0,53,40,14.99
552,Jos,NG,9.92,8.9,1601717316,72.82,62,96,14.47
553,Santa Margherita Ligure,IT,44.33,9.21,1601717316,60.01,93,100,16.87
554,Vágur,FO,61.47,-6.81,1601717317,50.07,89,100,21.68
555,Tsiroanomandidy,MG,-18.77,46.03,1601717317,97.93,19,30,4.63
556,São Félix do Xingu,BR,-6.64,-51.99,1601717318,71.69,68,86,0.56
